[
    {
        "icao": "SEQM",
        "iata": "UIO",
        "name": "Nuevo Aeropuerto Internacional Mariscal Sucre",
        "city": "Quito",
        "state": "Pichincha",
        "country": "EC",
        "elevation": 9200,
        "lat": -0.1291666667,
        "lon": -78.3575,
        "tz": "America\/Guayaquil",
        "hours": "51min"
    },
    {
        "icao": "MPTO",
        "iata": "PTY",
        "name": "Tocumen International Airport",
        "city": "Tocumen",
        "state": "Panama",
        "country": "PA",
        "elevation": 135,
        "lat": 9.0713596344,
        "lon": -79.3834991455,
        "tz": "America\/Panama",
        "hours": "2h 10min"
    },
    {
        "icao": "SEGS",
        "iata": "GPS",
        "name": "Seymour Airport",
        "city": "Baltra",
        "state": "Galapagos",
        "country": "EC",
        "elevation": 207,
        "lat": -0.4537580013,
        "lon": -90.2658996582,
        "tz": "Pacific\/Galapagos",
        "hours": "1h 30min"
    },
    {
        "icao": "KBRO",
        "iata": "BRO",
        "name": "Brownsville South Padre Island International Airport",
        "city": "Brownsville",
        "state": "Texas",
        "country": "US",
        "elevation": 22,
        "lat": 25.9067993164,
        "lon": -97.4259033203,
        "tz": "America\/Chicago",
        "hours": "15h 23min"
    },
    {
        "icao": "KJFK",
        "iata": "JFK",
        "name": "John F Kennedy International Airport",
        "city": "New York",
        "state": "New-York",
        "country": "US",
        "elevation": 13,
        "lat": 40.63980103,
        "lon": -73.77890015,
        "tz": "America\/New_York",
        "hours": "6h 14min"
    },
    {
        "icao": "KFLL",
        "iata": "FLL",
        "name": "Fort Lauderdale Hollywood International Airport",
        "city": "Fort Lauderdale",
        "state": "Florida",
        "country": "US",
        "elevation": 9,
        "lat": 26.072599411,
        "lon": -80.1527023315,
        "tz": "America\/New_York",
        "hours": "4h 20min"
    },
    {
        "icao": "SKBO",
        "iata": "BOG",
        "name": "El Dorado International Airport",
        "city": "Bogota",
        "state": "Bogota-D-C-",
        "country": "CO",
        "elevation": 8361,
        "lat": 4.70159,
        "lon": -74.1469,
        "tz": "America\/Bogota",
        "hours": "1h 14min"
    },
    {
        "icao": "EHAM",
        "iata": "AMS",
        "name": "Amsterdam Airport Schiphol",
        "city": "Amsterdam",
        "state": "North-Holland",
        "country": "NL",
        "elevation": -11,
        "lat": 52.3086013794,
        "lon": 4.7638897896,
        "tz": "Europe\/Amsterdam",
        "hours": "14h 40min"
    }
]